city_id,city,latitude,longitude,temperature,humidity,cloudiness,wind_speed,country,date_time
0,oranjemund,-28.55,16.4333,61.14,94,7,9.66,NA,2026-01-27 17:48:12
1,howard springs,-12.497,131.047,85.91,88,100,9.4,AU,2026-01-27 17:48:12
2,yellowknife,62.456,-114.3525,-10.68,83,75,10.36,CA,2026-01-27 17:45:48
3,bethel,41.3712,-73.414,12.04,76,0,4.61,US,2026-01-27 17:48:12
4,bredasdorp,-34.5322,20.0403,61.79,83,7,1.01,ZA,2026-01-27 17:48:12
5,adamstown,-25.066,-130.1015,77.22,77,1,16.35,PN,2026-01-27 17:48:12
6,gaigeturi,33.4644,126.3183,35.65,51,75,9.22,KR,2026-01-27 17:48:12
7,talnakh,69.4865,88.3972,-25.01,95,88,7.58,RU,2026-01-27 17:48:13
8,luderitz,-26.6481,15.1594,64.62,73,3,16.62,NA,2026-01-27 17:48:13
9,avarua,-21.2078,-159.775,80.65,89,100,19.57,CK,2026-01-27 17:48:13
10,vasil'yevo,55.836,48.6582,12.6,89,100,12.06,RU,2026-01-27 17:48:13
11,dudinka,69.4058,86.1778,-31.36,100,60,6.31,RU,2026-01-27 17:48:13
12,longyearbyen,78.2186,15.6401,6.64,78,40,9.22,SJ,2026-01-27 17:48:13
13,newman,37.3138,-121.0208,55.2,79,37,2.55,US,2026-01-27 17:48:13
14,college,64.8569,-147.8028,3.15,78,100,9.22,US,2026-01-27 17:48:13
15,hamilton,39.1834,-84.5333,16.99,70,100,5.99,US,2026-01-27 17:48:13
16,nuuk,64.1835,-51.7216,34.41,51,32,2.3,GL,2026-01-27 17:48:14
17,burang,30.25,81.1667,16.7,96,100,8.55,CN,2026-01-27 17:47:21
18,koh kong,11.6175,102.9806,73.47,68,93,4.5,KH,2026-01-27 17:48:14
19,katsuren-haebaru,26.3369,127.8719,63.86,71,75,13.8,JP,2026-01-27 17:48:14
20,carutapera,-1.195,-46.02,78.04,78,100,8.66,BR,2026-01-27 17:48:14
21,invercargill,-46.4,168.35,63.01,79,100,5.99,NZ,2026-01-27 17:48:14
22,port mathurin,-19.6833,63.4167,78.89,83,20,6.91,MU,2026-01-27 17:48:14
23,luanda,-8.8368,13.2343,78.8,78,75,6.91,AO,2026-01-27 17:48:14
24,grytviken,-54.2811,-36.5092,39.69,72,9,6.87,GS,2026-01-27 17:48:14
25,tsiombe,-25.3,45.4833,74.75,98,29,0.92,MG,2026-01-27 17:48:14
26,thompson,55.7435,-97.8558,-5.64,77,100,9.22,CA,2026-01-27 17:48:14
27,ierapetra,35.01,25.7353,51.15,81,48,1.99,GR,2026-01-27 17:48:15
28,ribeira grande,38.5167,-28.7,63.0,94,75,32.21,PT,2026-01-27 17:48:15
29,minas de marcona,-15.2119,-75.1103,63.86,87,91,17.16,PE,2026-01-27 17:48:15
30,iskateley,67.6803,53.1512,0.37,98,100,3.62,RU,2026-01-27 17:48:15
31,tiksi,71.6872,128.8694,-21.15,98,81,9.55,RU,2026-01-27 17:48:15
32,ushuaia,-54.8,-68.3,49.66,57,0,20.71,AR,2026-01-27 17:48:15
33,sisimiut,66.9395,-53.6735,23.47,66,100,9.78,GL,2026-01-27 17:48:15
34,kitgum,3.2783,32.8867,74.05,52,71,2.55,UG,2026-01-27 17:48:15
35,aasiaat,68.7098,-52.8699,7.29,91,60,4.32,GL,2026-01-27 17:48:15
36,chonchi,-42.6128,-73.8092,62.11,100,100,4.9,CL,2026-01-27 17:48:16
37,bilibino,68.0546,166.4372,-2.78,68,0,6.89,RU,2026-01-27 17:48:16
38,yerofey pavlovich,53.9667,121.9667,-14.3,87,98,2.17,RU,2026-01-27 17:48:16
39,vadso,70.0744,29.7487,21.36,86,100,23.02,NO,2026-01-27 17:48:16
40,kazanskoye,55.6448,69.235,-2.9,96,100,10.87,RU,2026-01-27 17:48:16
41,geneseo,42.7959,-77.8169,11.07,83,89,1.01,US,2026-01-27 17:48:16
42,isafjordur,66.0755,-23.124,31.78,91,100,21.25,IS,2026-01-27 17:48:16
43,olonkinbyen,70.9221,-8.7187,29.73,68,71,10.31,SJ,2026-01-27 17:48:16
44,abalak,58.1286,68.5944,4.78,89,100,11.45,RU,2026-01-27 17:48:16
45,ilulissat,69.2167,-51.1,28.42,43,75,18.41,GL,2026-01-27 17:48:17
46,port-aux-francais,-49.35,70.2167,44.19,79,100,20.94,TF,2026-01-27 17:48:17
47,tura,25.5198,90.2201,59.25,59,6,3.31,IN,2026-01-27 17:48:17
48,waitangi,-43.9535,-176.5597,62.82,78,0,7.0,NZ,2026-01-27 17:48:17
49,puerto baquerizo moreno,-0.9,-89.6,76.12,86,100,9.15,EC,2026-01-27 17:48:17
50,lethem,3.3803,-59.7968,81.99,59,96,10.02,GY,2026-01-27 17:48:17
51,west island,-12.1568,96.8225,80.58,78,100,17.27,CC,2026-01-27 17:48:17
52,lompoc,34.6391,-120.4579,62.58,56,0,9.22,US,2026-01-27 17:48:17
53,enewetak,11.3474,162.3373,81.79,72,100,17.47,MH,2026-01-27 17:48:17
54,hermanus,-34.4187,19.2345,63.37,82,70,5.32,ZA,2026-01-27 17:48:18
55,puerto natales,-51.7236,-72.4875,48.54,83,100,4.18,CL,2026-01-27 17:48:18
56,gremyachevo,54.7503,38.5869,9.27,94,100,8.77,RU,2026-01-27 17:48:18
57,san rafael del sur,11.8485,-86.4384,77.86,57,9,17.13,NI,2026-01-27 17:48:18
58,grand forks,47.9417,-97.4337,1.08,60,0,11.5,US,2026-01-27 17:48:18
59,east london,-33.0153,27.9116,69.8,91,100,2.44,ZA,2026-01-27 17:48:18
60,punta arenas,-53.15,-70.9167,55.51,41,0,17.27,CL,2026-01-27 17:48:18
61,cabo san lucas,22.8909,-109.9124,74.75,59,20,4.61,MX,2026-01-27 17:48:18
62,iqaluit,63.7506,-68.5145,7.7,78,100,3.44,CA,2026-01-27 17:48:18
63,iwaki,37.05,140.8833,39.58,42,4,17.16,JP,2026-01-27 17:48:18
64,hawaiian paradise park,19.5933,-154.9731,82.38,68,40,13.8,US,2026-01-27 17:48:19
65,udachny,66.4167,112.4,-37.41,100,69,2.3,RU,2026-01-27 17:48:19
66,blackmans bay,-43.0167,147.3167,68.74,75,100,1.99,AU,2026-01-27 17:48:19
67,talas,38.6908,35.5538,41.67,65,75,9.22,TR,2026-01-27 17:48:19
68,namtsy,62.7161,129.6658,-32.76,97,81,3.15,RU,2026-01-27 17:48:19
69,edinburgh of the seven seas,-37.0676,-12.3116,63.37,74,6,3.0,SH,2026-01-27 17:48:19
70,whitehorse,60.7161,-135.0538,33.67,87,75,25.32,CA,2026-01-27 17:43:48
71,urangan,-25.3,152.9,78.84,62,4,18.61,AU,2026-01-27 17:48:19
72,jasper,37.2001,-94.3502,24.89,64,0,4.61,US,2026-01-27 17:48:19
73,mont-laurier,46.5501,-75.4993,2.41,99,100,1.23,CA,2026-01-27 17:48:19
74,pavlohrad,48.5167,35.8667,32.7,97,100,9.22,UA,2026-01-27 17:48:19
75,swakopmund,-22.6833,14.5333,63.41,86,100,4.18,NA,2026-01-27 17:48:20
76,wailua homesteads,22.0669,-159.378,80.13,76,0,12.66,US,2026-01-27 17:48:20
77,hilo,19.7297,-155.09,80.87,76,40,13.8,US,2026-01-27 17:44:55
78,kodiak,57.79,-152.4072,31.51,86,100,16.11,US,2026-01-27 17:43:59
79,touros,-5.1989,-35.4608,78.85,79,100,6.08,BR,2026-01-27 17:48:20
80,ardestan,33.3761,52.3694,42.8,48,0,3.76,IR,2026-01-27 17:48:20
81,spring creek,40.7266,-115.5859,37.71,49,100,3.0,US,2026-01-27 17:48:20
82,itoman,26.1247,127.6694,62.82,72,75,19.57,JP,2026-01-27 17:48:20
83,egilsstadir,65.2653,-14.3948,35.51,80,75,13.8,IS,2026-01-27 17:48:20
84,albany,42.6001,-73.9662,6.64,91,79,4.85,US,2026-01-27 17:48:20
85,galesong,-5.3166,119.3661,81.03,77,100,6.13,ID,2026-01-27 17:48:21
86,kingscliff,-28.2667,153.5667,78.6,61,100,12.66,AU,2026-01-27 17:48:21
87,st. john's,47.5649,-52.7093,27.59,93,100,17.27,CA,2026-01-27 17:48:21
88,puerto ayora,-0.7393,-90.3518,76.55,98,100,1.99,EC,2026-01-27 17:48:21
89,vorgashor,67.5833,63.95,-1.71,94,100,4.61,RU,2026-01-27 17:48:21
90,akobo,7.4344,3.9497,76.08,78,59,1.63,NG,2026-01-27 17:48:21
91,glace bay,46.1969,-59.957,17.92,80,100,23.02,CA,2026-01-27 17:48:21
92,saint-memmie,48.9525,4.3841,40.19,95,100,7.16,FR,2026-01-27 17:48:21
93,strelka,58.0728,93.0344,-14.15,94,98,5.82,RU,2026-01-27 17:48:22
94,keetmanshoop,-26.5833,18.1333,77.2,28,13,8.79,NA,2026-01-27 17:48:22
95,stanley,54.868,-1.6985,40.23,96,100,8.05,GB,2026-01-27 17:48:22
96,qaqortoq,60.7167,-46.0333,19.69,64,0,14.18,GL,2026-01-27 17:48:22
97,aldinga beach,-35.2793,138.4604,75.67,60,57,16.89,AU,2026-01-27 17:48:22
98,coquimbo,-29.9533,-71.3436,65.1,86,24,5.59,CL,2026-01-27 17:48:22
99,sena madureira,-9.0656,-68.6569,72.66,99,100,2.21,BR,2026-01-27 17:48:22
100,ponta delgada,37.7333,-25.6667,61.52,94,75,31.07,PT,2026-01-27 17:48:22
101,lianzhou,24.7811,112.3825,47.57,75,38,4.92,CN,2026-01-27 17:48:22
102,badger,64.8,-147.5333,4.91,78,100,9.22,US,2026-01-27 17:48:23
103,margaret river,-33.95,115.0667,65.37,50,0,6.49,AU,2026-01-27 17:48:23
104,ormara,25.2088,64.6357,65.01,43,0,11.34,PK,2026-01-27 17:48:23
105,baracoa,20.3467,-74.4958,75.0,88,40,7.34,CU,2026-01-27 17:48:23
106,minot air force base,48.4209,-101.3391,5.18,56,0,10.36,US,2026-01-27 17:48:23
107,ouadda,8.0777,22.4007,74.26,20,100,4.59,CF,2026-01-27 17:48:23
108,hami,42.8,93.45,24.64,42,100,4.0,CN,2026-01-27 17:48:23
109,hillsboro,45.5229,-122.9898,44.96,56,75,4.61,US,2026-01-27 17:43:48
110,port lincoln,-34.7333,135.8667,70.48,67,100,18.61,AU,2026-01-27 17:48:23
111,gadzhiyevo,69.2551,33.3362,16.54,75,100,6.22,RU,2026-01-27 17:48:23
112,port alfred,-33.5906,26.891,68.18,96,38,2.77,ZA,2026-01-27 17:48:23
113,cooper's town,26.8667,-77.5167,64.65,54,94,12.06,BS,2026-01-27 17:48:24
114,garoowe,8.4054,48.4845,61.97,91,100,9.06,SO,2026-01-27 17:48:24
115,bhamo,24.2667,97.2333,56.35,58,0,1.03,MM,2026-01-27 17:48:24
116,tofol,5.3248,163.0078,85.78,74,75,8.05,FM,2026-01-27 17:48:24
117,wellington,-41.2866,174.7756,73.06,53,5,12.66,NZ,2026-01-27 17:47:41
118,saldanha,-33.0117,17.9442,60.85,85,0,17.02,ZA,2026-01-27 17:48:24
119,as samawah,31.332,45.2944,56.52,51,72,16.37,IQ,2026-01-27 17:48:24
120,estavayer-le-lac,46.8488,6.8465,33.87,100,40,1.14,CH,2026-01-27 17:48:24
121,jaten,-7.5772,110.8975,79.02,93,98,4.85,ID,2026-01-27 17:48:24
122,novyy karanlug,39.7955,47.1099,34.27,95,100,1.63,AZ,2026-01-27 17:48:24
123,borba,-4.3878,-59.5939,75.38,90,87,2.73,BR,2026-01-27 17:48:25
124,bikenibeu village,1.3673,173.1241,87.76,66,20,6.91,KI,2026-01-27 17:48:25
125,ola,59.5833,151.2833,12.54,79,100,9.93,RU,2026-01-27 17:48:25
126,rongelap,11.1635,166.8941,81.03,77,100,18.23,MH,2026-01-27 17:48:25
127,christchurch,-43.5333,172.6333,68.2,64,52,17.27,NZ,2026-01-27 17:48:25
128,saudarkrokur,65.7461,-19.6394,26.2,84,100,7.29,IS,2026-01-27 17:48:25
129,usogorsk,63.4106,48.6872,-5.39,100,93,4.25,RU,2026-01-27 17:48:25
130,nadym,65.5333,72.5167,-4.88,97,100,20.62,RU,2026-01-27 17:48:25
131,thenzawl,23.3167,92.75,51.82,65,0,3.22,IN,2026-01-27 17:48:25
132,rio grande,-32.035,-52.0986,74.62,93,56,6.31,BR,2026-01-27 17:48:25
133,hsinchu,24.8036,120.9686,57.88,87,24,7.0,TW,2026-01-27 17:45:38
134,lyubim,58.3625,40.6843,7.7,95,100,1.77,RU,2026-01-27 17:48:26
135,huarmey,-10.0681,-78.1522,74.88,78,17,8.72,PE,2026-01-27 17:48:26
136,malango,-2.9627,119.9001,74.39,81,100,2.04,ID,2026-01-27 17:48:26
137,kavaratti,10.5669,72.642,80.04,78,0,12.8,IN,2026-01-27 17:48:26
138,raja,8.4596,25.678,77.11,23,82,3.42,SS,2026-01-27 17:48:26
139,carnarvon,-24.8667,113.6333,75.63,55,0,19.17,AU,2026-01-27 17:48:26
140,saint george,37.1041,-113.5841,52.39,19,0,3.44,US,2026-01-27 17:48:26
141,griffith,41.5284,-87.4237,9.64,64,0,10.36,US,2026-01-27 17:48:26
142,tuy hoa,13.0833,109.3,71.56,86,86,5.3,VN,2026-01-27 17:48:27
143,bhan,26.5583,67.7214,51.8,53,6,2.62,PK,2026-01-27 17:48:27
144,fortaleza,-3.7227,-38.5247,77.13,94,0,1.14,BR,2026-01-27 17:47:14
145,leua,48.2156,18.6071,34.03,93,100,10.29,SK,2026-01-27 17:48:27
146,remire-montjoly,4.9167,-52.2667,75.24,100,75,2.3,GF,2026-01-27 17:48:27
147,oradea,47.0667,21.9333,37.04,93,100,7.0,RO,2026-01-27 17:44:25
148,la ronge,55.1001,-105.2842,-7.35,64,100,3.44,CA,2026-01-27 17:48:27
149,roma,43.2128,-75.4557,11.5,85,100,5.75,US,2026-01-27 17:48:27
150,guangzhou,23.1167,113.25,63.03,56,0,8.39,CN,2026-01-27 17:48:27
151,souillac,-20.5167,57.5167,75.58,94,75,5.75,MU,2026-01-27 17:48:27
152,lebu,-37.6167,-73.65,61.99,94,59,4.21,CL,2026-01-27 17:48:28
153,east end,34.5507,-92.341,34.97,66,100,4.72,US,2026-01-27 17:48:28
154,hastings,50.8552,0.5729,44.51,82,9,10.13,GB,2026-01-27 17:48:28
155,bayanhongor,46.7167,100.1167,-10.8,87,100,2.98,MN,2026-01-27 17:48:28
156,tidjikja,18.5564,-11.4271,66.02,7,97,11.16,MR,2026-01-27 17:48:28
157,diego de almagro,-26.3667,-70.05,68.11,57,0,4.7,CL,2026-01-27 17:48:28
158,sitka,57.0531,-135.33,46.29,66,100,9.22,US,2026-01-27 17:47:23
159,bereznik,62.8551,42.7072,-9.63,100,96,1.95,RU,2026-01-27 17:48:28
160,ust-nera,64.5667,143.2,-3.64,98,100,1.54,RU,2026-01-27 17:48:28
161,riachao,-7.3619,-46.6172,71.65,91,100,4.7,BR,2026-01-27 17:48:28
162,georgetown,5.4112,100.3354,71.31,76,20,9.22,MY,2026-01-27 17:48:01
163,codrington,-38.2667,141.9667,67.55,65,100,11.95,AU,2026-01-27 17:48:29
164,asikkala,61.2167,25.5,13.03,97,76,3.13,FI,2026-01-27 17:48:29
165,ascension,30.2169,-90.9001,38.86,59,99,4.38,US,2026-01-27 17:48:29
166,sake,-1.5736,29.045,63.27,81,100,0.58,CD,2026-01-27 17:48:29
167,lihue,21.9789,-159.3672,80.19,65,0,12.66,US,2026-01-27 17:48:29
168,bridgewater,44.3835,-64.5155,19.08,79,100,5.75,CA,2026-01-27 17:48:29
169,longgang,37.6508,120.3286,27.46,71,11,6.78,CN,2026-01-27 17:47:47
170,bonthe,7.5264,-12.505,77.04,90,29,4.79,SL,2026-01-27 17:48:29
171,urzhar,47.093,81.6294,18.55,81,100,4.76,KZ,2026-01-27 17:48:29
172,pijijiapan,15.7011,-93.23,78.08,55,1,12.82,MX,2026-01-27 17:48:30
173,talara,-4.5772,-81.2719,72.84,86,56,9.51,PE,2026-01-27 17:48:30
174,yanchep,-31.55,115.6833,72.05,48,0,12.95,AU,2026-01-27 17:48:30
175,kushiro,42.975,144.3747,25.75,86,75,9.22,JP,2026-01-27 17:48:30
176,afaahiti,-17.75,-149.2833,77.52,77,18,9.8,PF,2026-01-27 17:48:30
177,puerto yuca,2.9383,-73.2083,80.82,73,99,3.91,CO,2026-01-27 17:48:30
178,hadibu,12.65,54.0333,72.95,74,63,11.36,YE,2026-01-27 17:48:30
179,kununurra,-15.7667,128.7333,82.38,89,75,5.75,AU,2026-01-27 17:48:30
180,markovo,57.3206,107.0881,-39.33,100,87,0.36,RU,2026-01-27 17:48:30
181,laojunmiao,39.8333,97.7333,23.31,26,2,8.99,CN,2026-01-27 17:48:30
182,sasayama,35.0667,135.2167,35.73,93,100,3.78,JP,2026-01-27 17:48:31
183,olyokminsk,60.3736,120.4264,-24.48,99,96,1.21,RU,2026-01-27 17:48:31
184,yendi,9.4427,-0.0099,80.17,16,0,5.64,GH,2026-01-27 17:48:31
185,uturoa,-16.7333,-151.4333,80.92,73,5,13.51,PF,2026-01-27 17:48:31
186,wewak,-3.5534,143.6268,86.02,66,97,9.66,PG,2026-01-27 17:48:31
187,freetown,8.484,-13.2299,80.31,69,15,10.36,SL,2026-01-27 17:48:31
188,as sulayyil,20.4607,45.5779,55.13,39,0,7.74,SA,2026-01-27 17:48:31
189,bodaybo,57.8506,114.1933,-43.91,100,70,1.83,RU,2026-01-27 17:48:31
190,ventspils,57.3894,21.5606,21.13,93,100,11.5,LV,2026-01-27 17:48:31
191,kruisfontein,-34.0033,24.7314,62.62,93,19,3.98,ZA,2026-01-27 17:48:31
192,mount pearl,47.5166,-52.7813,26.2,95,100,17.27,CA,2026-01-27 17:48:32
193,gubkinskiy,64.434,76.5026,-9.29,96,100,19.06,RU,2026-01-27 17:48:32
194,venado tuerto,-33.7456,-61.9688,74.86,40,46,8.59,AR,2026-01-27 17:45:48
195,vila velha,-20.3297,-40.2925,76.95,83,40,4.61,BR,2026-01-27 17:48:32
196,hasaki,35.7333,140.8333,44.17,53,100,15.82,JP,2026-01-27 17:48:32
197,anadyr,64.75,177.4833,-5.3,77,0,13.42,RU,2026-01-27 17:48:32
198,diu,20.7141,70.9822,61.25,34,0,7.74,IN,2026-01-27 17:48:32
199,miles city,46.4083,-105.8406,29.37,50,0,4.61,US,2026-01-27 17:47:25
200,holualoa,19.6228,-155.9522,72.9,87,38,1.01,US,2026-01-27 17:48:32
201,klyuchi,52.2667,79.1667,-14.98,100,100,4.05,RU,2026-01-27 17:48:32
202,pisco,-13.7,-76.2167,75.25,73,0,24.16,PE,2026-01-27 17:48:33
203,happy valley-goose bay,53.3168,-60.3315,1.71,66,100,6.91,CA,2026-01-27 17:48:33
204,kapuskasing,49.4169,-82.4331,-0.4,85,100,3.44,CA,2026-01-27 17:48:33
205,labuan,5.2767,115.2417,80.96,89,20,6.91,MY,2026-01-27 17:48:33
206,pacific grove,36.6177,-121.9166,60.21,69,0,11.5,US,2026-01-27 17:48:33
207,pangody,65.85,74.4859,-8.7,95,100,18.7,RU,2026-01-27 17:48:33
208,bandarbeyla,9.4942,50.8122,75.97,62,86,15.05,SO,2026-01-27 17:48:33
209,alta,69.9689,23.2717,4.26,85,0,2.3,NO,2026-01-27 17:48:33
210,illela,13.7292,5.2975,69.35,6,0,14.34,NG,2026-01-27 17:48:33
211,medvezh'yegorsk,62.9167,34.4667,-1.89,99,68,4.32,RU,2026-01-27 17:48:33
212,kete krachi,7.7939,-0.0498,81.77,61,0,7.58,GH,2026-01-27 17:48:34
213,mek'ele,13.4967,39.4753,56.89,52,59,4.76,ET,2026-01-27 17:48:34
214,lucas,41.6501,-83.6666,9.66,76,0,11.5,US,2026-01-27 17:48:34
215,port elizabeth,-33.918,25.5701,69.31,95,0,9.22,ZA,2026-01-27 17:48:34
216,utrik,11.2278,169.8474,80.71,78,31,18.05,MH,2026-01-27 17:48:34
217,grants,35.1473,-107.8514,39.43,13,0,4.61,US,2026-01-27 17:48:34
218,mochudi,-24.4167,26.15,72.19,45,5,5.79,BW,2026-01-27 17:48:34
219,keflavik,64.0049,-22.5624,39.63,56,0,16.11,IS,2026-01-27 17:48:35
220,hithadhoo,-0.6,73.0833,81.88,71,99,11.92,MV,2026-01-27 17:48:35
221,dunedin,-45.8742,170.5036,62.8,76,100,4.0,NZ,2026-01-27 17:48:35
222,grahamstown,-33.3042,26.5328,61.38,96,83,3.67,ZA,2026-01-27 17:48:35
223,ilebo,-4.3167,20.5833,69.8,97,95,1.01,CD,2026-01-27 17:48:35
224,quatre cocos,-20.2078,57.7625,77.09,76,100,6.22,MU,2026-01-27 17:48:35
225,chojnow,51.2737,15.9366,30.49,93,13,5.06,PL,2026-01-27 17:48:35
226,namibe,-15.1961,12.1522,70.16,80,100,6.93,AO,2026-01-27 17:48:35
227,kismayo,-0.3582,42.5454,76.3,81,100,15.88,SO,2026-01-27 17:48:35
228,labytnangi,66.6572,66.4183,-2.85,98,100,10.16,RU,2026-01-27 17:48:35
229,cobija,-11.0267,-68.7692,72.09,99,100,4.12,BO,2026-01-27 17:48:36
230,howrah,22.5892,88.3103,60.8,82,0,3.44,IN,2026-01-27 17:48:36
231,torghay,49.6339,63.4981,-4.11,96,15,10.69,KZ,2026-01-27 17:48:36
232,nuku'alofa,-21.1333,-175.2,88.14,74,40,8.05,TO,2026-01-27 17:47:22
233,cannonvale,-20.2833,148.7,83.59,66,100,8.21,AU,2026-01-27 17:48:36
234,oxapampa,-10.5775,-75.4017,60.71,98,100,2.01,PE,2026-01-27 17:48:36
235,papatowai,-46.5619,169.4708,63.73,64,97,7.67,NZ,2026-01-27 17:48:36
236,es castell,39.8795,4.2854,57.88,62,0,23.02,ES,2026-01-27 17:48:36
237,cabedelo,-6.9811,-34.8339,79.47,80,100,6.46,BR,2026-01-27 17:48:36
238,jeddah,21.5169,39.2192,76.86,65,0,0.0,SA,2026-01-27 17:47:23
239,bolivar,37.6145,-93.4105,21.52,75,100,4.88,US,2026-01-27 17:45:21
240,mbuji-mayi,-6.15,23.6,69.33,90,100,2.21,CD,2026-01-27 17:48:37
241,kristiansund,63.1115,7.732,23.65,54,0,8.05,NO,2026-01-27 17:48:37
242,el higo,21.7667,-98.4667,56.17,63,56,5.82,MX,2026-01-27 17:48:37
243,eregli,37.5133,34.0467,38.1,83,100,2.8,TR,2026-01-27 17:48:37
244,saint croix,17.7397,-64.7388,74.95,78,0,4.61,VI,2026-01-27 17:48:37
245,tandalti,13.0167,31.8667,74.03,19,73,12.01,SD,2026-01-27 17:48:37
246,new norfolk,-42.7826,147.0587,69.93,50,100,8.3,AU,2026-01-27 17:48:37
247,kalemie,-5.9475,29.1947,70.27,86,100,3.71,CD,2026-01-27 17:48:37
248,mugia,43.1041,-9.2179,50.2,75,100,24.0,ES,2026-01-27 17:48:37
249,jumla,29.2747,82.1838,34.52,94,92,8.61,NP,2026-01-27 17:48:38
250,kirillov,59.863,38.3813,-10.46,100,99,2.28,RU,2026-01-27 17:48:38
251,zavetnoye,47.1194,43.8903,19.4,92,100,18.45,RU,2026-01-27 17:48:38
252,kurumkan,54.3,110.3,-23.35,86,71,3.36,RU,2026-01-27 17:48:38
253,tazovsky,67.4667,78.7,-16.44,96,95,16.42,RU,2026-01-27 17:48:38
254,tansen,27.8673,83.5467,50.2,71,100,7.52,NP,2026-01-27 17:48:38
255,polyarnyy,69.1989,33.4478,18.41,74,100,6.98,RU,2026-01-27 17:48:38
256,lata,40.1629,-8.3327,46.18,97,100,4.0,PT,2026-01-27 17:48:38
257,tonosho,34.4833,134.1833,42.35,60,0,18.34,JP,2026-01-27 17:48:38
258,ambert,45.55,3.75,36.21,99,100,2.95,FR,2026-01-27 17:48:38
259,neyriz,29.1988,54.3278,37.13,69,100,2.86,IR,2026-01-27 17:48:39
260,tanumah,27.1,44.1333,60.55,43,92,13.82,SA,2026-01-27 17:48:39
261,sergeyevka,53.88,67.4158,-2.52,96,100,8.88,KZ,2026-01-27 17:48:39
262,enriquillo,17.9,-71.2333,71.98,84,5,7.58,DO,2026-01-27 17:48:39
263,termoli,41.9888,14.9895,49.77,69,100,10.71,IT,2026-01-27 17:48:39
264,sokcho,38.2083,128.5911,23.61,30,0,10.36,KR,2026-01-27 17:48:39
265,preobrazheniye,42.9019,133.9064,10.44,57,98,7.18,RU,2026-01-27 17:48:39
266,pangkalpinang,-2.1333,106.1333,80.83,68,84,10.4,ID,2026-01-27 17:48:39
267,port isabel,26.0734,-97.2086,55.65,71,0,4.61,US,2026-01-27 17:48:39
268,hotan,37.0997,79.9269,24.35,62,100,6.76,CN,2026-01-27 17:48:40
269,amga,60.8953,131.9608,-20.2,97,99,1.19,RU,2026-01-27 17:48:40
270,san patricio,28.017,-97.5169,49.95,59,87,7.9,US,2026-01-27 17:48:40
271,greymouth,-42.4667,171.2,66.24,69,85,7.58,NZ,2026-01-27 17:48:40
272,papao,-17.75,-149.55,83.88,72,1,7.87,PF,2026-01-27 17:48:40
273,ridgecrest,35.6225,-117.6709,58.14,22,20,3.44,US,2026-01-27 17:48:40
274,paragominas,-2.9667,-47.4833,72.59,96,100,4.81,BR,2026-01-27 17:48:40
275,fort st. john,56.2499,-120.8529,19.29,79,100,6.91,CA,2026-01-27 17:45:09
276,khandyga,62.6667,135.6,-25.08,96,100,1.72,RU,2026-01-27 17:48:40
277,mocimboa,-11.3167,40.35,74.53,95,100,7.29,MZ,2026-01-27 17:48:41
278,mitu,1.1983,-70.1733,69.64,95,100,2.1,CO,2026-01-27 17:48:41
279,vorkuta,67.5,64.0,-1.61,93,100,4.09,RU,2026-01-27 17:48:41
280,antalaha,-14.9003,50.2788,74.32,91,100,6.73,MG,2026-01-27 17:48:41
281,porto santo stefano,42.4338,11.1237,47.93,89,100,27.04,IT,2026-01-27 17:48:41
282,mccook,40.2019,-100.6257,28.45,59,0,6.91,US,2026-01-27 17:48:41
283,fale old settlement,-9.3852,-171.2468,83.01,74,100,20.38,TK,2026-01-27 17:48:41
284,yung shue wan,22.2333,114.1167,64.92,77,61,10.29,HK,2026-01-27 17:48:41
285,severo-yeniseyskiy,60.3725,93.0408,-34.04,100,71,2.89,RU,2026-01-27 17:48:41
286,mungwi,-10.1732,31.3694,63.05,95,100,3.31,ZM,2026-01-27 17:48:41
287,jamestown,42.097,-79.2353,10.67,91,100,8.05,US,2026-01-27 17:48:42
288,manakara,-22.1333,48.0167,75.9,91,2,4.63,MG,2026-01-27 17:48:42
289,kanata,45.3159,-75.8985,9.14,75,75,5.75,CA,2026-01-27 17:48:42
290,pointe-noire,-4.7761,11.8635,80.67,94,40,2.3,CG,2026-01-27 17:48:42
291,lubang,13.8584,120.124,78.53,74,33,20.98,PH,2026-01-27 17:48:42
292,amos,48.5669,-78.1162,-8.99,100,82,2.1,CA,2026-01-27 17:48:42
293,kalevala,65.2,31.1667,-12.19,100,90,3.13,RU,2026-01-27 17:48:42
294,queenstown,-31.8976,26.8753,63.95,94,79,3.89,ZA,2026-01-27 17:48:42
295,campo gallo,-26.5833,-62.85,76.51,67,20,5.7,AR,2026-01-27 17:48:43
296,synel'nykove,48.3204,35.5179,33.03,99,100,9.46,UA,2026-01-27 17:48:43
297,takum,7.2667,9.9833,74.55,16,93,1.74,NG,2026-01-27 17:48:43
298,morehead city,34.7229,-76.726,36.84,56,0,9.22,US,2026-01-27 17:48:43
299,porto velho,-8.7619,-63.9039,75.25,94,75,1.14,BR,2026-01-27 17:48:43
300,taguatinga,-12.3857,-46.5711,77.0,60,24,4.72,BR,2026-01-27 17:48:43
301,sosnovo-ozerskoye,52.5249,111.5418,-36.65,100,85,1.63,RU,2026-01-27 17:48:43
302,krasnokamensk,50.0979,118.0369,-23.01,95,82,2.86,RU,2026-01-27 17:48:43
303,sao vicente,-23.9631,-46.3919,80.73,66,13,7.0,BR,2026-01-27 17:48:43
304,bashmakovo,53.2133,43.0342,8.92,86,100,13.51,RU,2026-01-27 17:48:43
305,witu,-2.3889,40.4382,72.41,91,100,5.55,KE,2026-01-27 17:48:44
306,amasra,41.7463,32.3863,50.83,71,60,10.51,TR,2026-01-27 17:48:44
307,itaituba,-4.2761,-55.9836,73.94,98,100,1.68,BR,2026-01-27 17:48:44
308,hobyo,5.3505,48.5268,74.48,81,99,15.75,SO,2026-01-27 17:48:44
309,verdal,63.7933,11.4817,7.39,88,5,4.27,NO,2026-01-27 17:48:44
310,susuman,62.7833,148.1667,-4.0,100,92,1.63,RU,2026-01-27 17:48:44
311,miranda,3.2499,-76.2281,69.67,91,93,2.33,CO,2026-01-27 17:48:44
312,santana,-0.0583,-51.1817,80.78,83,40,13.8,BR,2026-01-27 17:46:02
313,lazaro cardenas,17.9583,-102.2,78.69,67,0,8.41,MX,2026-01-27 17:48:44
314,palu,-0.8917,119.8707,87.1,66,57,1.23,ID,2026-01-27 17:48:44
315,kosh-agach,50.0,88.6667,-11.09,99,57,2.13,RU,2026-01-27 17:48:45
316,kombissiri,12.0656,-1.3375,71.55,13,2,9.33,BF,2026-01-27 17:48:45
317,mpika,-11.8343,31.4529,61.72,97,100,2.48,ZM,2026-01-27 17:48:45
318,gadani,25.1185,66.7299,64.4,54,10,6.71,PK,2026-01-27 17:48:45
319,ancud,-41.8697,-73.8203,59.68,99,100,7.67,CL,2026-01-27 17:48:45
320,strabane,54.8237,-7.4692,41.13,83,46,12.91,GB,2026-01-27 17:48:45
321,walvis bay,-22.9575,14.5053,63.79,86,100,4.09,NA,2026-01-27 17:48:45
322,pointe aux piments,-20.0628,57.5131,77.52,86,100,8.12,MU,2026-01-27 17:48:45
323,ta`u,-14.2336,-169.5144,79.57,86,100,14.97,AS,2026-01-27 17:48:45
324,cooma,-36.2333,149.1333,95.79,12,0,2.55,AU,2026-01-27 17:48:45
325,awjilah,29.1081,21.2869,52.18,74,0,8.19,LY,2026-01-27 17:48:46
326,san luis de la loma,17.2706,-100.8939,81.19,66,100,8.3,MX,2026-01-27 17:48:46
327,bethanie,-26.4833,17.15,78.67,27,99,14.09,NA,2026-01-27 17:48:46
328,san jose del guaviare,2.5729,-72.6459,82.98,64,100,2.17,CO,2026-01-27 17:48:46
329,rio blanco,18.8333,-97.15,53.49,99,100,1.48,MX,2026-01-27 17:48:46
330,pelabuhanratu,-6.9875,106.5514,78.15,86,100,1.54,ID,2026-01-27 17:48:46
331,kimbe,-5.5502,150.1429,81.39,84,95,10.02,PG,2026-01-27 17:48:46
332,poletayevo,55.0336,61.1138,13.73,85,100,8.75,RU,2026-01-27 17:48:47
333,eastman,32.1977,-83.1777,31.82,59,0,0.0,US,2026-01-27 17:48:47
334,bad lobenstein,50.4493,11.6381,30.97,70,100,3.0,DE,2026-01-27 17:48:47
335,baihar,22.1,80.55,60.21,53,6,3.44,IN,2026-01-27 17:48:47
336,guia lopes da laguna,-21.4578,-56.1142,71.11,98,100,0.76,BR,2026-01-27 17:48:47
337,kuusamo,65.9667,29.1833,-3.96,84,0,6.91,FI,2026-01-27 17:48:47
338,byakabanda,-0.7425,31.4064,66.16,76,100,1.45,UG,2026-01-27 17:48:47
339,roleystone,-32.1167,116.0667,68.11,49,0,19.57,AU,2026-01-27 17:48:47
340,hanceville,34.0607,-86.7675,34.16,60,100,4.92,US,2026-01-27 17:48:48
341,fukuecho,32.6881,128.8419,44.96,57,75,14.97,JP,2026-01-27 17:48:48
342,crane,31.3974,-102.3501,39.74,68,0,3.13,US,2026-01-27 17:48:48
343,constantia,44.1833,28.65,38.08,98,100,12.68,RO,2026-01-27 17:44:26
344,kerrville,30.0474,-99.1403,39.49,69,0,6.64,US,2026-01-27 17:48:48
345,praia da vitoria,38.7333,-27.0667,68.25,73,75,35.68,PT,2026-01-27 17:48:48
346,brokopondo,4.75,-55.1667,76.39,85,89,9.89,SR,2026-01-27 17:48:48
347,mount gambier,-37.8333,140.7667,72.59,48,83,10.16,AU,2026-01-27 17:48:48
348,saint-joseph,-21.3667,55.6167,75.58,85,100,5.03,RE,2026-01-27 17:48:48
349,yuzhno-kurilsk,44.0306,145.8556,28.09,77,100,11.56,RU,2026-01-27 17:48:48
350,boca suno,-0.7167,-77.1333,72.64,97,55,2.24,EC,2026-01-27 17:48:48
351,mount isa,-20.7333,139.5,80.37,74,100,11.5,AU,2026-01-27 17:48:49
352,ellenabad,29.45,74.65,47.64,94,0,6.76,IN,2026-01-27 17:48:49
353,caleta de carquin,-11.0925,-77.6267,74.66,79,65,10.02,PE,2026-01-27 17:48:49
354,sabang,5.8933,95.3214,81.81,69,74,13.15,ID,2026-01-27 17:48:49
355,lucaya,26.5333,-78.6667,62.53,59,40,8.05,BS,2026-01-27 17:48:49
356,leh,34.1667,77.5833,1.0,92,87,3.76,IN,2026-01-27 17:48:49
357,gizo,-8.103,156.8419,81.23,81,100,14.85,SB,2026-01-27 17:48:49
358,fallon,39.4735,-118.7774,47.1,29,75,9.22,US,2026-01-27 17:48:49
359,dorogobuzh,54.915,33.2972,23.36,96,100,7.61,RU,2026-01-27 17:48:49
360,basoko,1.2391,23.616,72.86,73,82,3.65,CD,2026-01-27 17:48:49
361,berezovo,63.9381,65.0419,-2.94,99,96,5.86,RU,2026-01-27 17:48:50
362,big bend,-26.8167,31.9333,71.58,94,78,0.63,SZ,2026-01-27 17:48:50
363,waddan,29.1614,16.139,54.54,46,0,5.46,LY,2026-01-27 17:48:50
364,dannenberg,53.0967,11.09,31.77,91,100,8.55,DE,2026-01-27 17:48:50
365,ayr,55.4627,-4.6339,44.58,81,20,16.11,GB,2026-01-27 17:48:50
366,sarnico,45.6734,9.9625,40.14,92,100,7.0,IT,2026-01-27 17:48:50
367,toliara,-23.35,43.6667,79.32,82,0,4.18,MG,2026-01-27 17:48:50
368,vilyuchinsk,52.9306,158.4028,37.67,77,93,13.22,RU,2026-01-27 17:48:50
369,toamasina,-18.1667,49.3833,75.2,100,40,4.61,MG,2026-01-27 17:48:50
370,saipan,15.1355,145.701,81.3,83,100,12.66,MP,2026-01-27 17:48:51
371,vernon,50.2581,-119.2691,33.42,92,100,0.0,CA,2026-01-27 17:48:51
372,armacao de buzios,-22.7469,-41.8817,73.56,89,99,15.3,BR,2026-01-27 17:48:51
373,porto novo,6.4965,2.6036,82.22,82,100,5.99,BJ,2026-01-27 17:48:51
374,port moresby,-9.4431,147.1797,80.56,76,100,6.58,PG,2026-01-27 17:48:51
375,santa cruz del monte,42.4985,-4.46,31.23,91,28,13.24,ES,2026-01-27 17:48:51
376,rengasdengklok,-6.1592,107.2981,81.39,90,100,5.66,ID,2026-01-27 17:48:51
377,andkhoy,36.9529,65.1238,42.04,79,100,17.83,AF,2026-01-27 17:48:51
378,shiyan,32.6475,110.7781,37.78,81,35,1.25,CN,2026-01-27 17:48:52
379,salym,60.0625,71.4789,3.06,95,100,11.45,RU,2026-01-27 17:48:52
380,punta del este,-34.9667,-54.95,68.88,96,20,9.22,UY,2026-01-27 17:48:52
381,cole harbour,44.6724,-63.4751,18.03,76,75,6.91,CA,2026-01-27 17:48:52
382,kingston,17.997,-76.7936,79.75,78,6,8.05,JM,2026-01-27 17:48:52
383,la'ie,21.6477,-157.9253,80.11,77,31,3.06,US,2026-01-27 17:48:52
384,senillosa,-39.0,-68.4167,82.18,16,63,23.58,AR,2026-01-27 17:48:52
385,tralee,52.2704,-9.7026,37.71,91,100,6.33,IE,2026-01-27 17:48:52
386,sinnar,13.5691,33.5672,77.36,30,0,10.27,SD,2026-01-27 17:48:53
387,vuktyl,63.8567,57.3094,3.42,96,100,6.98,RU,2026-01-27 17:48:53
388,northam,51.0333,-4.2167,40.35,86,24,10.49,GB,2026-01-27 17:48:53
389,brandon,27.9378,-82.2859,43.45,58,0,1.01,US,2026-01-27 17:48:53
390,molchanovo,57.5817,83.7692,-21.46,100,33,0.72,RU,2026-01-27 17:48:53
391,kargasok,59.0556,80.8572,-18.67,99,38,6.17,RU,2026-01-27 17:48:53
392,maintirano,-18.0667,44.0167,77.41,87,100,6.51,MG,2026-01-27 17:48:53
393,sudogda,55.9539,40.8629,13.68,95,100,6.35,RU,2026-01-27 17:48:53
394,homer,59.6425,-151.5483,23.23,92,100,18.01,US,2026-01-27 17:48:53
395,recani,31.2846,-4.2688,56.25,38,100,5.32,MA,2026-01-27 17:48:53
396,antigonish,45.6169,-61.9986,13.64,84,12,5.99,CA,2026-01-27 17:48:54
397,shenjiamen,29.9576,122.298,46.0,54,100,9.13,CN,2026-01-27 17:48:54
398,al mijlad,11.0333,27.7333,75.54,22,53,11.01,SD,2026-01-27 17:48:54
399,padang,-0.9492,100.3543,75.25,82,100,4.18,ID,2026-01-27 17:48:54
400,sao joao da barra,-21.6403,-41.0511,75.99,87,100,12.57,BR,2026-01-27 17:48:54
401,kudahuvadhoo,2.6708,72.8944,81.32,78,90,19.35,MV,2026-01-27 17:48:54
402,ebon,4.582,168.6964,83.32,74,79,14.09,MH,2026-01-27 17:48:54
403,erenhot,43.6475,111.9767,-1.86,85,69,6.82,CN,2026-01-27 17:48:54
404,ephrata,40.1798,-76.1788,18.73,64,20,13.8,US,2026-01-27 17:48:54
405,saint-philippe,-21.3585,55.7679,78.51,85,100,8.1,RE,2026-01-27 17:48:54
406,puerto armuelles,8.2833,-82.8667,79.09,71,80,5.01,PA,2026-01-27 17:48:55
407,kegen,43.0197,79.2203,12.97,85,100,3.78,KZ,2026-01-27 17:48:55
408,sukhinichi,54.0999,35.3425,14.79,95,100,6.76,RU,2026-01-27 17:48:55
409,abay,49.6311,72.8539,14.36,96,86,6.29,KZ,2026-01-27 17:48:55
410,guane,22.2025,-84.0875,60.31,63,0,9.17,CU,2026-01-27 17:48:55
411,progreso,21.2833,-89.6667,69.51,71,18,13.29,MX,2026-01-27 17:48:55
412,ula,22.7225,88.5556,60.78,82,0,3.44,IN,2026-01-27 17:48:55
413,nizao,18.25,-70.2,75.29,78,26,6.93,DO,2026-01-27 17:48:55
414,posto fiscal rolim de moura,-13.0833,-62.2667,71.71,98,100,2.33,BR,2026-01-27 17:48:55
415,port macquarie,-31.4333,152.9167,79.07,63,0,8.99,AU,2026-01-27 17:48:55
416,south venice,27.0531,-82.4243,45.99,48,0,10.78,US,2026-01-27 17:48:56
417,nova sintra,14.8667,-24.7167,72.86,73,60,18.03,CV,2026-01-27 17:48:56
418,canico,32.6333,-16.85,65.01,88,20,5.75,PT,2026-01-27 17:48:56
419,la cruz,23.9167,-106.9,67.21,69,79,5.39,MX,2026-01-27 17:48:56
420,okahao,-17.885,15.0667,70.34,55,100,11.68,NA,2026-01-27 17:48:56
421,mar del plata,-38.0023,-57.5575,64.02,81,40,8.99,AR,2026-01-27 17:48:56
422,urucui,-7.2294,-44.5561,72.45,95,100,9.75,BR,2026-01-27 17:48:56
423,colares,38.7992,-9.4469,54.37,90,100,5.99,PT,2026-01-27 17:48:56
424,taoudenni,22.6783,-3.9836,66.43,12,100,5.68,ML,2026-01-27 17:48:56
425,thunder bay,48.4001,-89.3168,1.31,66,40,11.5,CA,2026-01-27 17:48:57
426,doctor arroyo,23.6667,-100.1833,56.12,43,97,4.47,MX,2026-01-27 17:48:57
427,piacabucu,-10.4056,-36.4344,80.02,79,100,9.33,BR,2026-01-27 17:48:57
428,laguna,38.421,-121.4238,56.19,77,0,3.44,US,2026-01-27 17:48:57
429,manokwari,-0.8667,134.0833,82.99,71,7,5.03,ID,2026-01-27 17:48:57
430,san carlos,9.6612,-68.5827,77.86,68,49,4.36,VE,2026-01-27 17:48:57
431,muravlenko,63.7898,74.523,-4.79,95,100,18.43,RU,2026-01-27 17:48:57
432,lesparre-medoc,45.3,-0.9333,45.03,93,100,3.65,FR,2026-01-27 17:48:59
433,mentougou,39.9392,116.0917,26.46,33,58,3.04,CN,2026-01-27 17:48:59
434,acarau,-2.8856,-40.12,74.91,90,100,2.95,BR,2026-01-27 17:48:59
435,tromso,69.6496,18.957,21.22,79,0,13.8,NO,2026-01-27 17:48:59
436,vila franca do campo,37.7167,-25.4333,64.89,99,100,25.01,PT,2026-01-27 17:48:59
437,vizinga,61.0749,50.1031,3.47,95,100,6.04,RU,2026-01-27 17:48:59
438,gazli,40.1333,63.45,29.1,67,96,13.11,UZ,2026-01-27 17:48:59
439,kinablangan,7.6947,126.5503,79.75,76,18,8.88,PH,2026-01-27 17:48:59
440,fortuna,40.5982,-124.1573,52.03,93,100,18.41,US,2026-01-27 17:48:59
441,nar'yan-mar,67.6713,53.087,0.28,97,100,3.65,RU,2026-01-27 17:48:59
442,ikalamavony,-21.15,46.5833,67.66,92,13,4.14,MG,2026-01-27 17:49:00
443,carauari,-4.8828,-66.8958,74.35,98,100,2.39,BR,2026-01-27 17:49:00
444,guadalupe y calvo,26.1,-106.9667,43.32,41,43,2.37,MX,2026-01-27 17:49:00
445,wynyard,-41.0,145.7167,75.18,51,75,4.0,AU,2026-01-27 17:49:00
446,suva,-18.1416,178.4415,89.08,66,75,8.05,FJ,2026-01-27 17:49:00
447,carlsbad,33.1581,-117.3506,63.21,54,0,6.91,US,2026-01-27 17:46:19
448,tokar,18.4254,37.729,78.64,64,100,8.57,SD,2026-01-27 17:49:00
449,cheyenne,41.14,-104.8203,37.89,30,100,14.97,US,2026-01-27 17:47:23
450,mil'kovo,55.6078,37.7956,15.53,96,100,6.82,RU,2026-01-27 17:49:00
451,atafu village,-8.5421,-172.5159,82.9,75,100,17.83,TK,2026-01-27 17:49:00
452,siena,43.2167,11.4,44.28,93,100,8.9,IT,2026-01-27 17:49:01
453,ambodifotatra,-16.9833,49.85,79.52,82,100,13.53,MG,2026-01-27 17:49:01
454,durango,24.8333,-104.8333,60.44,24,79,2.01,MX,2026-01-27 17:49:01
455,verkhnevilyuysk,63.4453,120.3167,-21.62,97,100,2.89,RU,2026-01-27 17:49:01
456,weligama,5.9667,80.4167,74.66,89,99,4.03,LK,2026-01-27 17:49:01
457,bac lieu,9.285,105.7244,76.17,76,14,14.43,VN,2026-01-27 17:49:01
458,igarka,67.4667,86.5833,-24.75,97,94,8.1,RU,2026-01-27 17:49:01
459,mawu,34.4307,104.9176,26.2,53,100,3.0,CN,2026-01-27 17:49:01
460,khovd,48.0056,91.6419,-0.56,91,9,3.6,MN,2026-01-27 17:49:02
461,kenai,60.5544,-151.2583,17.56,90,100,6.91,US,2026-01-27 17:47:46
462,yakutsk,62.0339,129.7331,-31.04,75,93,2.24,RU,2026-01-27 17:49:02
463,kasserine,35.1676,8.8365,53.65,47,100,15.66,TN,2026-01-27 17:49:02
464,chulakkurgan,43.765,69.1814,34.61,99,100,6.91,KZ,2026-01-27 17:49:02
465,santiago de cao,-7.9589,-79.2392,73.53,88,10,9.22,PE,2026-01-27 17:49:02
466,taishan,22.2514,112.7799,64.87,53,0,6.2,CN,2026-01-27 17:49:02
467,port douglas,-16.4833,145.4667,79.07,66,69,2.75,AU,2026-01-27 17:49:02
468,inhambane,-23.865,35.3833,73.17,77,0,3.98,MZ,2026-01-27 17:49:02
469,inarajan village,13.2736,144.7484,83.79,82,45,11.52,GU,2026-01-27 17:49:02
470,tommot,58.9564,126.2925,-32.42,99,83,0.67,RU,2026-01-27 17:49:03
471,alma,48.5501,-71.6491,2.32,98,100,0.72,CA,2026-01-27 17:49:03
472,dubois,38.3464,-86.8897,16.12,73,0,5.75,US,2026-01-27 17:49:03
473,puerto santa,-8.9906,-78.6456,74.1,77,10,9.78,PE,2026-01-27 17:49:03
474,urengoy,65.9667,78.3667,-17.5,97,95,15.21,RU,2026-01-27 17:49:03
475,lionel town,17.8101,-77.2406,76.71,84,26,4.41,JM,2026-01-27 17:49:03
476,kourou,5.1552,-52.6478,73.87,91,100,2.98,GF,2026-01-27 17:49:03
477,subkhankulovo,54.5574,53.8115,7.63,83,100,13.0,RU,2026-01-27 17:49:03
478,ouargla,31.9493,5.325,62.67,20,93,14.97,DZ,2026-01-27 17:49:04
479,santos dumont,-21.4567,-43.5525,64.71,95,100,1.05,BR,2026-01-27 17:49:04
480,bubaque,11.2833,-15.8333,76.44,62,64,3.6,GW,2026-01-27 17:49:04
481,okhotsk,59.3833,143.3,19.38,79,100,10.98,RU,2026-01-27 17:49:04
482,mogok,22.9167,96.5,52.88,55,0,2.35,MM,2026-01-27 17:49:04
483,fort bragg,35.139,-79.006,34.66,41,0,8.05,US,2026-01-27 17:49:04
484,reggane,26.7158,0.1714,60.24,16,0,8.55,DZ,2026-01-27 17:49:04
485,menaka,15.9182,2.4022,65.89,13,6,9.62,ML,2026-01-27 17:49:04
486,cannes,43.55,7.0167,50.02,99,100,4.61,FR,2026-01-27 17:49:04
487,aykhal,66.0,111.5,-25.33,100,24,2.73,RU,2026-01-27 17:49:05
488,gamba,-2.65,10.0,79.7,85,100,4.0,GA,2026-01-27 17:49:05
489,formosa do rio preto,-11.0483,-45.1931,74.77,59,21,1.9,BR,2026-01-27 17:49:05
490,neiafu,-18.65,-173.9833,88.48,74,40,10.36,TO,2026-01-27 17:49:05
491,lepsy,46.235,78.9456,19.09,84,100,6.22,KZ,2026-01-27 17:49:05
492,timimoun,29.2639,0.231,59.38,20,0,16.11,DZ,2026-01-27 17:49:05
493,hargeysa,9.56,44.065,56.05,94,100,4.41,SO,2026-01-27 17:49:05
494,shushenskoye,53.325,91.9356,7.5,96,100,2.35,RU,2026-01-27 17:49:05
495,keelung,25.1283,121.7419,60.71,79,99,10.49,TW,2026-01-27 17:49:06
496,kupang,-10.1667,123.5833,81.18,94,75,4.61,ID,2026-01-27 17:49:06
497,lubbenau,51.8667,13.9667,30.72,92,100,7.14,DE,2026-01-27 17:49:06
498,nehe,48.4833,124.8333,-12.42,92,76,5.82,CN,2026-01-27 17:49:06
499,vallenar,-28.5708,-70.7581,67.59,66,0,4.34,CL,2026-01-27 17:49:06
500,vilhena,-12.7406,-60.1458,67.96,97,100,1.81,BR,2026-01-27 17:49:06
501,arawa,-6.2132,155.5367,85.03,69,100,2.44,PG,2026-01-27 17:49:06
502,elassona,39.8947,22.1886,43.14,73,4,4.9,GR,2026-01-27 17:49:06
503,paloncha,17.6,80.6833,64.04,82,56,3.0,IN,2026-01-27 17:49:06
504,qingyang,37.4958,121.2581,24.71,62,59,3.13,CN,2026-01-27 17:49:06
505,kwang binh,17.4833,106.6,67.15,87,65,7.87,VN,2026-01-27 17:49:07
506,guerrero negro,27.9769,-114.0611,65.95,39,100,8.08,MX,2026-01-27 17:49:07
507,ussuriysk,43.7986,131.9508,5.14,77,85,6.85,RU,2026-01-27 17:49:07
508,nagato,34.3833,131.2,41.31,55,98,16.11,JP,2026-01-27 17:49:07
509,san antonio de pale,-1.4014,5.6325,81.3,80,100,7.14,GQ,2026-01-27 17:49:07
510,venice,27.0998,-82.4543,45.97,48,0,10.83,US,2026-01-27 17:49:07
511,shingu,33.7333,135.9833,47.07,42,70,4.43,JP,2026-01-27 17:49:07
512,choibalsan,48.0667,114.5,-17.01,95,32,4.25,MN,2026-01-27 17:49:07
513,alaghsas,17.0187,8.0168,61.7,9,0,8.99,NE,2026-01-27 17:49:07
514,salinopolis,-0.6136,-47.3561,78.17,83,100,11.34,BR,2026-01-27 17:49:07
515,matoury,4.8483,-52.3317,75.16,100,75,2.3,GF,2026-01-27 17:49:07
516,seabra,-12.4186,-41.7703,70.0,90,69,7.18,BR,2026-01-27 17:49:08
517,buka,40.8108,69.1986,39.81,74,70,4.59,UZ,2026-01-27 17:49:08
518,stepnoye,51.4,46.8667,5.97,92,100,10.89,RU,2026-01-27 17:49:08
519,la passe,45.5549,-0.8967,45.45,88,100,6.71,FR,2026-01-27 17:49:08
520,dange,12.8513,5.3471,67.62,7,0,12.84,NG,2026-01-27 17:49:08
521,turkmenbasy,40.0222,52.9552,29.17,74,0,11.5,TM,2026-01-27 17:49:08
522,castillos,-34.1667,-53.8333,69.3,87,35,1.41,UY,2026-01-27 17:49:09
523,bizhbulyak,53.6967,54.2642,0.68,88,100,12.37,RU,2026-01-27 17:49:09
524,arica,-18.475,-70.3042,74.77,76,97,4.88,CL,2026-01-27 17:49:09
525,altinekin,38.3078,32.8686,36.86,95,60,7.9,TR,2026-01-27 17:49:09
526,zavodoukovsk,56.5042,66.5515,3.54,84,100,13.42,RU,2026-01-27 17:49:09
527,valparaiso,-33.0393,-71.6273,73.08,70,1,10.87,CL,2026-01-27 17:49:09
528,luba,3.4568,8.5547,79.7,86,100,4.5,GQ,2026-01-27 17:49:09
529,luganville,-15.5333,167.1667,83.82,74,35,14.5,VU,2026-01-27 17:49:09
530,genhe,50.7833,121.5167,-20.79,96,39,0.89,CN,2026-01-27 17:48:44
531,quang ngai,15.1167,108.8,68.59,84,97,4.18,VN,2026-01-27 17:49:09
532,kerch,45.3583,36.4758,45.77,88,55,17.58,UA,2026-01-27 17:49:09
533,bamboo flat,11.7,92.7167,77.09,73,20,2.3,IN,2026-01-27 17:49:10
534,paphos,34.7667,32.4167,60.58,59,75,2.3,CY,2026-01-27 17:49:10
535,nelson bay,-32.7167,152.15,75.6,62,0,16.62,AU,2026-01-27 17:49:10
536,prince rupert,54.3161,-130.3201,50.07,61,100,23.02,CA,2026-01-27 17:49:10
537,agat village,13.3886,144.6585,83.75,82,20,6.91,GU,2026-01-27 17:49:10
538,guroymak,38.5774,42.0281,23.58,89,100,3.76,TR,2026-01-27 17:49:10
539,quimili,-27.6333,-62.4167,77.27,69,7,6.35,AR,2026-01-27 17:49:10
540,nova vicosa,-17.8919,-39.3719,75.97,83,5,5.93,BR,2026-01-27 17:49:10
541,lycksele,64.5954,18.6735,1.27,85,75,0.0,SE,2026-01-27 17:49:10
542,lamarque,-39.423,-65.7021,82.69,37,0,15.05,AR,2026-01-27 17:49:10
543,nizhniy odes,63.6445,54.856,0.34,97,100,5.35,RU,2026-01-27 17:49:11
544,auki,-8.7676,160.7034,77.02,92,100,16.46,SB,2026-01-27 17:49:11
545,nuriootpa,-34.4833,139.0,84.04,49,6,16.37,AU,2026-01-27 17:49:11
546,hailey,43.5196,-114.3153,34.97,49,0,5.75,US,2026-01-27 17:49:11
547,weno,7.4515,151.8468,88.32,74,100,14.0,FM,2026-01-27 17:49:11
548,indramayu,-6.3264,108.32,81.86,88,100,12.53,ID,2026-01-27 17:49:11
549,monterey,36.2505,-121.2516,58.17,50,83,3.09,US,2026-01-27 17:49:11
550,funafuti,-8.5243,179.1942,87.8,70,75,13.8,TV,2026-01-27 17:49:11
551,novyy urgal,51.0736,132.5642,-18.78,95,99,1.05,RU,2026-01-27 17:49:12
552,taltal,-25.4,-70.4833,70.63,79,9,4.12,CL,2026-01-27 17:49:12
553,ulladulla,-35.35,150.4667,91.72,52,0,11.05,AU,2026-01-27 17:49:12
554,petropavlovsk-kamchatsky,53.0452,158.6483,36.19,48,75,17.9,RU,2026-01-27 17:49:12
555,cockburn town,21.4612,-71.1419,77.9,78,1,7.4,TC,2026-01-27 17:49:12
556,altay,47.8667,88.1167,13.59,73,32,6.87,CN,2026-01-27 17:49:12
557,tolanaro,-25.0319,46.9987,77.07,83,20,9.22,MG,2026-01-27 17:49:12
558,aioun,16.6614,-9.6149,66.02,6,80,11.79,MR,2026-01-27 17:49:12
559,ambovombe,-25.1667,46.0833,75.24,94,6,4.12,MG,2026-01-27 17:49:12
560,wellawaya,6.7318,81.1018,66.38,52,97,6.31,LK,2026-01-27 17:49:12
561,sosnogorsk,63.6023,53.8817,0.95,97,100,4.76,RU,2026-01-27 17:49:13
562,gardnerville ranchos,38.8882,-119.7413,43.86,32,0,6.91,US,2026-01-27 17:49:13
563,nguruka,-5.1092,31.0419,65.03,92,100,2.28,TZ,2026-01-27 17:49:13
564,westport,41.1415,-73.3579,14.99,70,40,13.8,US,2026-01-27 17:49:13
565,tazacorte,28.629,-17.9293,63.14,91,0,5.01,ES,2026-01-27 17:49:13
566,haiku-pauwela,20.9219,-156.3051,77.65,78,37,8.01,US,2026-01-27 17:49:13
567,el calafate,-50.3408,-72.2768,57.76,58,100,10.18,AR,2026-01-27 17:49:13
568,lhasa,29.65,91.1,24.66,28,2,4.16,CN,2026-01-27 17:49:13
569,alice springs,-23.7,133.8833,98.15,14,32,16.11,AU,2026-01-27 17:49:13
570,wahpeton,46.2652,-96.6059,-0.38,100,75,11.5,US,2026-01-27 17:49:13
571,tulun,54.5611,100.5792,-20.67,100,94,1.32,RU,2026-01-27 17:49:14
572,arraial do cabo,-22.9661,-42.0278,73.36,100,40,12.66,BR,2026-01-27 17:49:14
573,valdivia,-39.8142,-73.2459,62.8,97,100,1.7,CL,2026-01-27 17:49:14
574,luau,-10.7073,22.2247,63.1,96,95,2.84,AO,2026-01-27 17:49:14
575,nguigmi,14.2495,13.1092,67.57,17,14,11.79,NE,2026-01-27 17:49:14
576,pandan,14.0453,124.1694,78.31,67,100,11.86,PH,2026-01-27 17:49:14
577,pokhara,28.2333,83.9833,55.9,51,100,3.65,NP,2026-01-27 17:49:14
578,mokhsogollokh,61.4681,128.9203,-35.88,99,64,3.11,RU,2026-01-27 17:49:14
579,hohhot,40.8106,111.6522,5.29,72,0,4.47,CN,2026-01-27 17:49:14
580,borovskoy,53.8,64.15,3.61,84,100,12.46,KZ,2026-01-27 17:49:14
581,klaksvik,62.2266,-6.589,41.88,71,100,32.93,FO,2026-01-27 17:49:15
582,pyapon,16.2833,95.6833,69.73,80,4,4.16,MM,2026-01-27 17:49:15
583,dundee,56.5,-2.9667,40.35,97,75,29.93,GB,2026-01-27 17:49:15
584,elko,41.0002,-115.5012,37.47,41,100,3.0,US,2026-01-27 17:49:15
585,lampazos de naranjo,27.0167,-100.5167,49.71,34,100,7.47,MX,2026-01-27 17:49:15
586,onega,63.9061,38.1404,0.48,100,73,2.53,RU,2026-01-27 17:49:15
587,bardai,11.65,7.2333,64.71,8,2,11.25,NG,2026-01-27 17:49:15
588,sechura,-5.5569,-80.8222,77.67,66,32,14.41,PE,2026-01-27 17:49:15
589,celeyke,38.0597,37.1879,32.7,96,100,5.82,TR,2026-01-27 17:49:15
590,mili,6.0815,171.735,82.9,77,63,18.32,MH,2026-01-27 17:49:16
591,tzucacab,20.0667,-89.05,70.0,64,100,4.25,MX,2026-01-27 17:49:16
592,chanika,-5.4167,38.0167,68.16,93,100,2.48,TZ,2026-01-27 17:49:16
593,ha tinh,18.3333,105.9,66.2,87,38,3.04,VN,2026-01-27 17:49:16
594,astara,38.5,48.6667,28.38,89,100,0.2,AZ,2026-01-27 17:49:16
595,waingapu,-9.6567,120.2641,83.26,72,100,9.64,ID,2026-01-27 17:49:16
596,paita,-5.0892,-81.1144,73.22,83,32,11.81,PE,2026-01-27 17:49:16
597,itamaraca,-7.7478,-34.8256,81.27,77,98,5.7,BR,2026-01-27 17:49:16
598,sibiti,-3.6819,13.3499,70.16,99,100,2.17,CG,2026-01-27 17:49:16
599,faya-largeau,17.9257,19.1043,64.71,10,0,21.92,TD,2026-01-27 17:49:16
600,shatki,55.1887,44.1249,10.89,86,100,9.75,RU,2026-01-27 17:49:17
601,andapa,-14.65,49.65,69.84,99,100,2.19,MG,2026-01-27 17:49:17
602,marsh harbour,26.5412,-77.0636,66.22,53,97,11.01,BS,2026-01-27 17:49:17
603,kapa'a,22.0752,-159.319,81.48,76,0,12.66,US,2026-01-27 17:49:17
604,baukau,51.5526,7.2042,38.34,95,100,1.99,DE,2026-01-27 17:49:17
605,kyshtovka,56.555,76.6271,-19.1,99,72,5.28,RU,2026-01-27 17:49:17
606,tanout,14.9709,8.8879,60.1,9,0,13.85,NE,2026-01-27 17:49:17
607,mahdishahr,35.7108,53.3556,30.43,48,1,4.18,IR,2026-01-27 17:49:17
608,sterling,39.0062,-77.4286,25.3,51,20,10.36,US,2026-01-27 17:49:17
609,khulm,36.6974,67.6983,39.72,87,100,6.17,AF,2026-01-27 17:49:18
610,mocksville,35.894,-80.5614,27.57,66,5,6.17,US,2026-01-27 17:49:18
611,olinda,-8.0089,-34.8553,80.33,83,75,11.5,BR,2026-01-27 17:49:18
612,nemuro,43.3236,145.575,29.26,80,100,21.47,JP,2026-01-27 17:49:18
613,matipo,-20.2839,-42.3411,66.94,90,41,4.18,BR,2026-01-27 17:49:18
614,santa marta de ortigueira,43.6833,-7.85,47.1,85,100,13.11,ES,2026-01-27 17:49:18
615,nadi,-17.8,177.4167,80.6,74,100,20.71,FJ,2026-01-27 17:49:18
616,zavodskoy,43.4597,132.2922,4.59,61,69,6.71,RU,2026-01-27 17:49:18
617,kovalam,8.3667,76.9967,78.89,73,20,3.44,IN,2026-01-27 17:49:19
618,nabire,-3.3667,135.4833,86.32,64,17,4.09,ID,2026-01-27 17:49:19
619,ocean shores,46.9737,-124.1563,49.46,72,100,5.01,US,2026-01-27 17:49:19
620,crucecita,-28.95,-58.9833,82.54,54,87,5.86,AR,2026-01-27 17:49:19
621,inirida,3.8653,-67.9239,80.02,77,98,1.01,CO,2026-01-27 17:49:19
622,tianpeng,30.9866,103.9393,47.03,64,100,1.05,CN,2026-01-27 17:49:19
623,sogndal,61.2283,7.1003,23.38,38,3,4.61,NO,2026-01-27 17:49:19
624,oyama,36.3,139.8,41.09,39,19,4.03,JP,2026-01-27 17:49:19
625,coronel dorrego,-38.7187,-61.2873,68.2,39,5,11.99,AR,2026-01-27 17:49:20
626,antonio enes,-16.2325,39.9086,76.06,92,100,7.63,MZ,2026-01-27 17:49:20
627,sao jose da coroa grande,-8.8978,-35.1478,80.17,78,100,7.94,BR,2026-01-27 17:49:20
628,sinan,34.8262,126.1086,30.97,59,39,26.49,KR,2026-01-27 17:49:20
629,kuta,-8.7233,115.1723,80.55,83,40,11.5,ID,2026-01-27 17:49:20
630,pitimbu,-7.4706,-34.8086,81.0,77,99,7.2,BR,2026-01-27 17:49:20
631,fauske,67.2588,15.3918,22.95,86,60,7.36,NO,2026-01-27 17:49:20
632,portland,45.5234,-122.6762,44.28,57,100,13.8,US,2026-01-27 17:41:09
633,ormond-by-the-sea,29.3491,-81.0665,40.55,74,0,0.0,US,2026-01-27 17:49:21
634,bull savanna,17.8868,-77.5902,73.89,82,71,4.61,JM,2026-01-27 17:49:21
635,maloye ganyushkino,46.6,49.2667,12.54,92,100,13.56,KZ,2026-01-27 17:49:21
636,kotlas,61.2611,46.6556,0.81,98,93,3.67,RU,2026-01-27 17:49:21
637,tocopilla,-22.092,-70.1979,72.52,84,43,9.93,CL,2026-01-27 17:49:21
638,lisala,2.15,21.5167,70.95,75,100,2.51,CD,2026-01-27 17:49:21
639,chyorny yar,48.0624,46.1091,11.5,88,100,12.62,RU,2026-01-27 17:49:21
640,chibougamau,49.9168,-74.3659,-9.78,92,100,3.44,CA,2026-01-27 17:49:21
641,margate,51.3813,1.3862,40.71,90,0,10.54,GB,2026-01-27 17:49:21
642,kish,26.5578,54.0194,62.87,67,0,4.61,IR,2026-01-27 17:49:21
643,zindah jan,34.3426,61.7468,40.48,71,100,6.58,AF,2026-01-27 17:49:22
644,la sarre,48.8002,-79.1996,-1.16,100,100,3.29,CA,2026-01-27 17:49:22
645,fisterra,42.9049,-9.2629,51.17,72,100,26.55,ES,2026-01-27 17:49:22
646,kalmunai,7.4167,81.8167,73.04,79,100,8.1,LK,2026-01-27 17:49:22
647,beaufort west,-32.3567,22.583,62.19,75,16,10.8,ZA,2026-01-27 17:49:22
648,byron bay,-28.65,153.6167,78.76,54,27,10.33,AU,2026-01-27 17:49:22
649,condado,21.8767,-79.8403,68.95,86,48,11.34,CU,2026-01-27 17:49:22
650,puerto lleras,3.0223,-73.4044,79.39,81,93,3.69,CO,2026-01-27 17:49:22
651,vyerkhnyadzvinsk,55.7815,27.9443,23.32,96,100,10.63,BY,2026-01-27 17:49:23
652,kitimat,54.0524,-128.6534,34.92,47,100,3.62,CA,2026-01-27 17:44:40
653,tayu,-6.5397,111.0518,80.29,79,100,10.11,ID,2026-01-27 17:49:23
654,orchard homes,46.8633,-114.0484,34.92,57,100,5.99,US,2026-01-27 17:49:23
655,luena,-11.7833,19.9167,63.03,95,100,3.76,AO,2026-01-27 17:49:23
656,tosontsengel,48.7567,98.2839,-6.99,98,100,1.81,MN,2026-01-27 17:49:23
657,robore,-18.3333,-59.75,72.32,95,99,4.16,BO,2026-01-27 17:49:23
658,dadeldhura,29.2984,80.5806,44.17,94,100,7.92,NP,2026-01-27 17:49:23
659,kugesi,56.029,47.2925,11.86,85,100,8.95,RU,2026-01-27 17:49:23
660,ghat,24.9647,10.1728,56.55,18,0,5.57,LY,2026-01-27 17:49:23
661,quesnel,52.9999,-122.5029,34.3,75,75,4.61,CA,2026-01-27 17:49:24
662,miyazu,35.5333,135.1833,36.05,98,100,5.3,JP,2026-01-27 17:49:24
663,santa ana,33.7456,-117.8678,67.12,38,75,5.75,US,2026-01-27 17:46:20
664,cody,44.5263,-109.0565,43.02,26,0,11.5,US,2026-01-27 17:49:24
665,umluj,25.0213,37.2685,71.26,62,6,11.23,SA,2026-01-27 17:49:24
666,bakanas,44.8081,76.2772,26.83,83,100,1.32,KZ,2026-01-27 17:49:24
667,pindushi,62.9152,34.58,-2.25,99,63,4.05,RU,2026-01-27 17:49:24
668,antsiranana,-12.2787,49.2917,75.81,90,100,7.65,MG,2026-01-27 17:49:24
669,vilyuysk,63.7553,121.6247,-18.6,99,100,2.89,RU,2026-01-27 17:49:24
670,berezovyy,51.6667,135.7,9.01,93,99,0.76,RU,2026-01-27 17:49:25
671,zhaobaoshan,29.9695,121.6875,39.02,70,100,4.97,CN,2026-01-27 17:49:25
672,palmer,42.1584,-72.3287,13.08,69,100,1.01,US,2026-01-27 17:49:25
673,colac,-38.3333,143.5833,71.37,60,79,7.0,AU,2026-01-27 17:49:25
674,lesogorsk,56.0458,99.5136,-28.68,100,96,2.39,RU,2026-01-27 17:49:25
675,al jawf,29.5,38.75,50.79,42,0,11.52,SA,2026-01-27 17:49:25
676,humberto de campos,-2.5983,-43.4611,72.36,98,100,4.5,BR,2026-01-27 17:49:25
677,itacoatiara,-3.1431,-58.4442,75.27,95,97,1.92,BR,2026-01-27 17:49:25
678,aral,40.5156,81.2636,27.84,44,100,4.74,CN,2026-01-27 17:49:25
679,laiwu,36.1928,117.6569,33.1,46,0,3.13,CN,2026-01-27 17:49:25
680,shendi,16.6915,33.4341,75.38,18,0,13.65,SD,2026-01-27 17:49:26
681,cill airne,52.05,-9.5167,40.39,87,100,8.77,IE,2026-01-27 17:49:26
682,san carlos centro,-31.7286,-61.0919,80.31,54,1,7.25,AR,2026-01-27 17:49:26
683,luwuk,-0.9516,122.7875,84.02,61,100,3.44,ID,2026-01-27 17:49:26
684,coari,-4.085,-63.1414,73.4,93,81,2.66,BR,2026-01-27 17:49:26
685,panacan,9.2463,118.4082,81.95,75,0,8.63,PH,2026-01-27 17:49:26
686,tyukhtet,56.5389,89.3011,-2.2,98,95,1.7,RU,2026-01-27 17:49:26
687,comodoro rivadavia,-45.8667,-67.5,82.26,32,0,13.8,AR,2026-01-27 17:49:26
688,coahuayana de hidalgo,18.7,-103.6583,74.68,75,100,2.15,MX,2026-01-27 17:49:26
689,buurhakaba,2.8026,44.0781,71.73,67,100,11.81,SO,2026-01-27 17:49:26
690,dzhalil',55.0239,52.7358,6.03,85,100,17.09,RU,2026-01-27 17:49:27
691,palikir - national government center,6.9248,158.1611,84.56,81,100,11.5,FM,2026-01-27 17:49:27
692,camiri,-20.05,-63.5167,69.91,97,100,1.57,BO,2026-01-27 17:49:27
693,witbank,-25.8713,29.2332,63.21,77,5,4.18,ZA,2026-01-27 17:49:27
694,port saint john's,-31.6229,29.5448,72.64,89,68,3.58,ZA,2026-01-27 17:49:27
695,eldorado,-23.7869,-54.2836,73.85,88,56,5.61,BR,2026-01-27 17:49:27
696,noumea,-22.2763,166.4572,84.0,99,73,16.33,NC,2026-01-27 17:49:27
697,ulan bator,47.9077,106.8832,-27.27,62,0,2.24,MN,2026-01-27 17:49:27
698,ulsteinvik,62.3432,5.8487,25.57,70,0,1.99,NO,2026-01-27 17:49:27
699,borujen,31.9652,51.2873,27.66,67,100,5.77,IR,2026-01-27 17:49:27
700,ninghai,29.2892,121.4247,43.41,67,18,5.86,CN,2026-01-27 17:49:28
701,levashi,42.4304,47.3215,27.03,68,14,4.76,RU,2026-01-27 17:49:28
702,arkhangel'sk,64.5401,40.5433,-11.09,84,20,0.0,RU,2026-01-27 17:49:28
703,odessa,46.4775,30.7326,38.55,96,100,3.67,UA,2026-01-27 17:49:28
704,bollnas,61.3482,16.3946,7.79,99,97,3.33,SE,2026-01-27 17:49:28
705,pacocha,-17.5833,-71.3333,72.16,89,56,1.9,PE,2026-01-27 17:49:28
706,pervomayskoye,43.919,46.7102,38.21,85,100,24.18,RU,2026-01-27 17:49:28
707,buckeye,33.3703,-112.5838,65.75,25,0,4.61,US,2026-01-27 17:46:18
708,zaranj,30.9667,61.8833,46.09,63,13,4.97,AF,2026-01-27 17:49:28
709,illapel,-31.6308,-71.1653,68.16,71,0,4.72,CL,2026-01-27 17:49:28
710,umm kaddadah,13.6017,26.6876,71.85,17,0,18.72,SD,2026-01-27 17:49:29
711,krasnyy chikoy,50.3643,108.7512,-25.51,100,53,0.87,RU,2026-01-27 17:49:29
712,sabzevar,36.2126,57.6819,37.35,69,15,5.39,IR,2026-01-27 17:49:29
713,alvear,-29.0968,-56.5504,83.43,44,35,0.89,AR,2026-01-27 17:49:29
714,miri,4.4148,114.0089,77.14,94,40,3.44,MY,2026-01-27 17:49:29
715,labrador city,52.9463,-66.9114,-16.69,76,75,4.61,CA,2026-01-27 17:49:29
716,huangnihe,43.5583,128.0239,-0.92,85,94,6.78,CN,2026-01-27 17:49:29
717,port-vila,-17.7338,168.3219,78.4,100,100,14.97,VU,2026-01-27 17:49:29
718,nouadhibou,20.931,-17.0347,63.61,75,0,19.08,MR,2026-01-27 17:49:29
719,uthal,25.8072,66.6219,60.71,40,58,5.1,PK,2026-01-27 17:49:29
720,knyaze-volkonskoye,48.4642,135.4567,-7.26,96,98,2.48,RU,2026-01-27 17:49:30
721,jieshi,22.8134,115.8257,61.9,77,87,12.82,CN,2026-01-27 17:49:30
722,kyadabek,40.5656,45.8161,27.54,82,95,4.18,AZ,2026-01-27 17:49:30
723,rio claro,-22.4114,-47.5614,71.67,80,10,2.66,BR,2026-01-27 17:49:30
724,forked river,39.8398,-74.1901,19.26,73,12,1.99,US,2026-01-27 17:49:30
725,linxia chengguanzhen,35.6003,103.2064,26.6,42,100,5.01,CN,2026-01-27 17:49:30
726,abu jibeha,11.4562,31.2285,77.77,17,100,8.93,SD,2026-01-27 17:49:30
727,montevideo,-34.8335,-56.1674,75.58,91,100,8.05,UY,2026-01-27 17:49:30
728,al muwayh,22.4333,41.7583,59.4,41,87,10.67,SA,2026-01-27 17:49:30
729,okondja,-0.6549,13.6753,73.78,89,100,0.87,GA,2026-01-27 17:49:30
730,springbok,-29.6643,17.8865,63.66,50,0,3.33,ZA,2026-01-27 17:49:31
731,sanctuary point,-35.1114,150.629,87.75,55,0,13.6,AU,2026-01-27 17:49:31
732,copala,16.65,-98.9833,79.23,76,0,7.83,MX,2026-01-27 17:49:31
733,ghazni,33.5536,68.4269,16.27,72,73,7.09,AF,2026-01-27 17:49:31
734,cidreira,-30.1811,-50.2056,80.2,83,0,14.34,BR,2026-01-27 17:49:31
735,yeniseysk,58.4497,92.1703,-18.85,97,96,3.53,RU,2026-01-27 17:49:31
736,hirara,24.8,125.2833,64.67,77,75,21.85,JP,2026-01-27 17:49:31
737,taro,-8.3862,115.28,75.51,79,90,0.34,ID,2026-01-27 17:49:31
738,manta,-0.95,-80.7333,78.58,83,20,9.22,EC,2026-01-27 17:49:31
739,nogliki,51.8333,143.1667,8.2,91,100,7.58,RU,2026-01-27 17:49:31
740,den burg,53.0542,4.7972,36.45,97,100,20.94,NL,2026-01-27 17:49:31
741,marquette,46.5333,-87.6335,4.69,79,99,8.99,US,2026-01-27 17:49:32
742,wabag,-5.4781,143.7021,64.29,87,87,3.51,PG,2026-01-27 17:49:32
743,akrehamn,59.2667,5.1833,21.45,93,6,3.44,NO,2026-01-27 17:49:32
